<?xml version="1.0" encoding="utf-8" ?>
<kml xmlns="http://www.opengis.net/kml/2.2">
<Document id="root_doc">
<Folder><name>random_100_gemeinde_centroid</name>
<Style id="#basic"><IconStyle><scale>0</scale></IconStyle><LabelStyle><color>ff000000</color></LabelStyle></Style>
  <Placemark><styleUrl>#basic</styleUrl>
	<name>Zürich</name>
      <Point><altitudeMode>relativeToGround</altitudeMode><coordinates>8.531373251566892,47.381408804381209,800.0</coordinates></Point>
  </Placemark>
  <Placemark><styleUrl>#basic</styleUrl>
	<name>Bern</name>
      <Point><altitudeMode>relativeToGround</altitudeMode><coordinates>7.40634727709064,46.947587372966737,800.0</coordinates></Point>
  </Placemark>
  <Placemark><styleUrl>#basic</styleUrl>
	<name>Luzern</name>
      <Point><altitudeMode>relativeToGround</altitudeMode><coordinates>8.310246002122543,47.046968116629721,800.0</coordinates></Point>
  </Placemark>
  <Placemark><styleUrl>#basic</styleUrl>
	<name>Basel</name>
      <Point><altitudeMode>relativeToGround</altitudeMode><coordinates>7.593593506581641,47.557748195915472,800.0</coordinates></Point>
  </Placemark>
  <Placemark><styleUrl>#basic</styleUrl>
	<name>Schaffhausen</name>
      <Point><altitudeMode>relativeToGround</altitudeMode><coordinates>8.624738040475748,47.72137652529323,800.0</coordinates></Point>
  </Placemark>
  <Placemark><styleUrl>#basic</styleUrl>
	<name>St. Gallen</name>
      <Point><altitudeMode>relativeToGround</altitudeMode><coordinates>9.375548143049896,47.422137962678924,800.0</coordinates></Point>
  </Placemark>
  <Placemark><styleUrl>#basic</styleUrl>
	<name>Davos</name>
      <Point><altitudeMode>relativeToGround</altitudeMode><coordinates>9.833039752728016,46.753192615614608,800.0</coordinates></Point>
  </Placemark>
  <Placemark><styleUrl>#basic</styleUrl>
	<name>Lugano</name>
      <Point><altitudeMode>relativeToGround</altitudeMode><coordinates>9.002384233209094,46.039247175464126,800.0</coordinates></Point>
  </Placemark>
  <Placemark><styleUrl>#basic</styleUrl>
	<name>Lausanne</name>
      <Point><altitudeMode>relativeToGround</altitudeMode><coordinates>6.652211087017609,46.551891555581769,800.0</coordinates></Point>
  </Placemark>
  <Placemark><styleUrl>#basic</styleUrl>
	<name>Sion</name>
      <Point><altitudeMode>relativeToGround</altitudeMode><coordinates>7.364285761359327,46.227200415635878,800.0</coordinates></Point>
  </Placemark>
  <Placemark><styleUrl>#basic</styleUrl>
	<name>Genève</name>
      <Point><altitudeMode>relativeToGround</altitudeMode><coordinates>6.143750820459763,46.20707316861521,800.0</coordinates></Point>
  </Placemark>


  <Placemark><styleUrl>#basic</styleUrl>
	<name>Oberglatt</name>
	<description></description>
      <Point><altitudeMode>relativeToGround</altitudeMode><coordinates>8.524034619367413,47.47844703921271,800.0</coordinates></Point>
  </Placemark>
  <Placemark><styleUrl>#basic</styleUrl>
	<name>Hüntwangen</name>
	<description></description>
      <Point><altitudeMode>relativeToGround</altitudeMode><coordinates>8.498434456343183,47.591893340087076,800.0</coordinates></Point>
  </Placemark>
  <Placemark><styleUrl>#basic</styleUrl>
	<name>Bachs</name>
	<description></description>
      <Point><altitudeMode>relativeToGround</altitudeMode><coordinates>8.429144743826386,47.528462682014691,800.0</coordinates></Point>
  </Placemark>
  <Placemark><styleUrl>#basic</styleUrl>
	<name>Wetzikon (ZH)</name>
	<description></description>
      <Point><altitudeMode>relativeToGround</altitudeMode><coordinates>8.804629276793444,47.324382411068243,800.0</coordinates></Point>
  </Placemark>
  <Placemark><styleUrl>#basic</styleUrl>
	<name>Aefligen</name>
	<description></description>
      <Point><altitudeMode>relativeToGround</altitudeMode><coordinates>7.549454926893144,47.096629312637766,800.0</coordinates></Point>
  </Placemark>
  <Placemark><styleUrl>#basic</styleUrl>
	<name>Willadingen</name>
	<description></description>
      <Point><altitudeMode>relativeToGround</altitudeMode><coordinates>7.614943171942834,47.147012820600246,800.0</coordinates></Point>
  </Placemark>
  <Placemark><styleUrl>#basic</styleUrl>
	<name>Cormoret</name>
	<description></description>
      <Point><altitudeMode>relativeToGround</altitudeMode><coordinates>7.046943579970506,47.164722935001663,800.0</coordinates></Point>
  </Placemark>
  <Placemark><styleUrl>#basic</styleUrl>
	<name>Erlach</name>
	<description></description>
      <Point><altitudeMode>relativeToGround</altitudeMode><coordinates>7.0917612724721,47.03617685707237,800.0</coordinates></Point>
  </Placemark>
  <Placemark><styleUrl>#basic</styleUrl>
	<name>Gampelen</name>
	<description></description>
      <Point><altitudeMode>relativeToGround</altitudeMode><coordinates>7.056124095708997,47.005902775152393,800.0</coordinates></Point>
  </Placemark>
  <Placemark><styleUrl>#basic</styleUrl>
	<name>Court</name>
	<description></description>
      <Point><altitudeMode>relativeToGround</altitudeMode><coordinates>7.359201851853072,47.239749031476833,800.0</coordinates></Point>
  </Placemark>
  <Placemark><styleUrl>#basic</styleUrl>
	<name>Rubigen</name>
	<description></description>
      <Point><altitudeMode>relativeToGround</altitudeMode><coordinates>7.54487550748944,46.899702509736812,800.0</coordinates></Point>
  </Placemark>
  <Placemark><styleUrl>#basic</styleUrl>
	<name>Schlosswil</name>
	<description></description>
      <Point><altitudeMode>relativeToGround</altitudeMode><coordinates>7.612631525913199,46.908421284731524,800.0</coordinates></Point>
  </Placemark>
  <Placemark><styleUrl>#basic</styleUrl>
	<name>Innertkirchen</name>
	<description></description>
      <Point><altitudeMode>relativeToGround</altitudeMode><coordinates>8.305334040846157,46.691175633787516,800.0</coordinates></Point>
  </Placemark>
  <Placemark><styleUrl>#basic</styleUrl>
	<name>Belp</name>
	<description></description>
      <Point><altitudeMode>relativeToGround</altitudeMode><coordinates>7.510148062187638,46.886338075926155,800.0</coordinates></Point>
  </Placemark>
  <Placemark><styleUrl>#basic</styleUrl>
	<name>Grandval</name>
	<description></description>
      <Point><altitudeMode>relativeToGround</altitudeMode><coordinates>7.428004940604351,47.283619474094735,800.0</coordinates></Point>
  </Placemark>
  <Placemark><styleUrl>#basic</styleUrl>
	<name>Roches (BE)</name>
	<description></description>
      <Point><altitudeMode>relativeToGround</altitudeMode><coordinates>7.38125924877547,47.30377811864475,800.0</coordinates></Point>
  </Placemark>
  <Placemark><styleUrl>#basic</styleUrl>
	<name>Valbirse</name>
	<description></description>
      <Point><altitudeMode>relativeToGround</altitudeMode><coordinates>7.270418039041628,47.237718252400704,800.0</coordinates></Point>
  </Placemark>
  <Placemark><styleUrl>#basic</styleUrl>
	<name>Reutigen</name>
	<description></description>
      <Point><altitudeMode>relativeToGround</altitudeMode><coordinates>7.605376775684139,46.692630034316053,800.0</coordinates></Point>
  </Placemark>
  <Placemark><styleUrl>#basic</styleUrl>
	<name>Spiez</name>
	<description></description>
      <Point><altitudeMode>relativeToGround</altitudeMode><coordinates>7.670774993671233,46.686512010893154,800.0</coordinates></Point>
  </Placemark>
  <Placemark><styleUrl>#basic</styleUrl>
	<name>Heiligenschwendi</name>
	<description></description>
      <Point><altitudeMode>relativeToGround</altitudeMode><coordinates>7.682287722014499,46.752026143352253,800.0</coordinates></Point>
  </Placemark>
  <Placemark><styleUrl>#basic</styleUrl>
	<name>Thierachern</name>
	<description></description>
      <Point><altitudeMode>relativeToGround</altitudeMode><coordinates>7.572213644736927,46.75110772870898,800.0</coordinates></Point>
  </Placemark>
  <Placemark><styleUrl>#basic</styleUrl>
	<name>Schenkon</name>
	<description></description>
      <Point><altitudeMode>relativeToGround</altitudeMode><coordinates>8.133916596445774,47.179112603889472,800.0</coordinates></Point>
  </Placemark>
  <Placemark><styleUrl>#basic</styleUrl>
	<name>Eschenbach (LU)</name>
	<description></description>
      <Point><altitudeMode>relativeToGround</altitudeMode><coordinates>8.312130886219043,47.125420847936795,800.0</coordinates></Point>
  </Placemark>
  <Placemark><styleUrl>#basic</styleUrl>
	<name>Udligenswil</name>
	<description></description>
      <Point><altitudeMode>relativeToGround</altitudeMode><coordinates>8.399621809022152,47.091015630984607,800.0</coordinates></Point>
  </Placemark>
  <Placemark><styleUrl>#basic</styleUrl>
	<name>Schübelbach</name>
	<description></description>
      <Point><altitudeMode>relativeToGround</altitudeMode><coordinates>8.933304677824738,47.154852524165669,800.0</coordinates></Point>
  </Placemark>
  <Placemark><styleUrl>#basic</styleUrl>
	<name>Altdorf (UR)</name>
	<description></description>
      <Point><altitudeMode>relativeToGround</altitudeMode><coordinates>8.640995119695749,46.888322055326427,800.0</coordinates></Point>
  </Placemark>
  <Placemark><styleUrl>#basic</styleUrl>
	<name>Attinghausen</name>
	<description></description>
      <Point><altitudeMode>relativeToGround</altitudeMode><coordinates>8.543733902695509,46.828263995886985,800.0</coordinates></Point>
  </Placemark>
  <Placemark><styleUrl>#basic</styleUrl>
	<name>Flüelen</name>
	<description></description>
      <Point><altitudeMode>relativeToGround</altitudeMode><coordinates>8.639333625720981,46.914265789405029,800.0</coordinates></Point>
  </Placemark>
  <Placemark><styleUrl>#basic</styleUrl>
	<name>Wassen</name>
	<description></description>
      <Point><altitudeMode>relativeToGround</altitudeMode><coordinates>8.533442681416155,46.724590091139078,800.0</coordinates></Point>
  </Placemark>
  <Placemark><styleUrl>#basic</styleUrl>
	<name>Rueyres-les-Prés</name>
	<description></description>
      <Point><altitudeMode>relativeToGround</altitudeMode><coordinates>6.910940887568964,46.857106597620962,800.0</coordinates></Point>
  </Placemark>
  <Placemark><styleUrl>#basic</styleUrl>
	<name>Buochs</name>
	<description></description>
      <Point><altitudeMode>relativeToGround</altitudeMode><coordinates>8.422922551661987,46.967391402718455,800.0</coordinates></Point>
  </Placemark>
  <Placemark><styleUrl>#basic</styleUrl>
	<name>Hergiswil (NW)</name>
	<description></description>
      <Point><altitudeMode>relativeToGround</altitudeMode><coordinates>8.28024658986077,46.985991091099272,800.0</coordinates></Point>
  </Placemark>
  <Placemark><styleUrl>#basic</styleUrl>
	<name>Auboranges</name>
	<description></description>
      <Point><altitudeMode>relativeToGround</altitudeMode><coordinates>6.805096444552364,46.583783151386399,800.0</coordinates></Point>
  </Placemark>
  <Placemark><styleUrl>#basic</styleUrl>
	<name>Greng</name>
	<description></description>
      <Point><altitudeMode>relativeToGround</altitudeMode><coordinates>7.086371363721339,46.919107556319922,800.0</coordinates></Point>
  </Placemark>
  <Placemark><styleUrl>#basic</styleUrl>
	<name>Oberschrot</name>
	<description></description>
      <Point><altitudeMode>relativeToGround</altitudeMode><coordinates>7.269781397571372,46.736963092595161,800.0</coordinates></Point>
  </Placemark>
  <Placemark><styleUrl>#basic</styleUrl>
	<name>Bossonnens</name>
	<description></description>
      <Point><altitudeMode>relativeToGround</altitudeMode><coordinates>6.848128396051971,46.528898573508769,800.0</coordinates></Point>
  </Placemark>
  <Placemark><styleUrl>#basic</styleUrl>
	<name>Semsales</name>
	<description></description>
      <Point><altitudeMode>relativeToGround</altitudeMode><coordinates>6.955746760761792,46.56986146818155,800.0</coordinates></Point>
  </Placemark>
  <Placemark><styleUrl>#basic</styleUrl>
	<name>Kammersrohr</name>
	<description></description>
      <Point><altitudeMode>relativeToGround</altitudeMode><coordinates>7.592303695612071,47.256656542282222,800.0</coordinates></Point>
  </Placemark>
  <Placemark><styleUrl>#basic</styleUrl>
	<name>Lüsslingen-Nennigkofen</name>
	<description></description>
      <Point><altitudeMode>relativeToGround</altitudeMode><coordinates>7.494187536697029,47.186155643065405,800.0</coordinates></Point>
  </Placemark>
  <Placemark><styleUrl>#basic</styleUrl>
	<name>Hauenstein-Ifenthal</name>
	<description></description>
      <Point><altitudeMode>relativeToGround</altitudeMode><coordinates>7.855963938320478,47.371084693601972,800.0</coordinates></Point>
  </Placemark>
  <Placemark><styleUrl>#basic</styleUrl>
	<name>Himmelried</name>
	<description></description>
      <Point><altitudeMode>relativeToGround</altitudeMode><coordinates>7.590588768712808,47.424789215329319,800.0</coordinates></Point>
  </Placemark>
  <Placemark><styleUrl>#basic</styleUrl>
	<name>Aesch (BL)</name>
	<description></description>
      <Point><altitudeMode>relativeToGround</altitudeMode><coordinates>7.585367402173766,47.473945513049934,800.0</coordinates></Point>
  </Placemark>
  <Placemark><styleUrl>#basic</styleUrl>
	<name>Hemishofen</name>
	<description></description>
      <Point><altitudeMode>relativeToGround</altitudeMode><coordinates>8.841041398855898,47.688246100852908,800.0</coordinates></Point>
  </Placemark>
  <Placemark><styleUrl>#basic</styleUrl>
	<name>Trasadingen</name>
	<description></description>
      <Point><altitudeMode>relativeToGround</altitudeMode><coordinates>8.426221751088814,47.66978567132746,800.0</coordinates></Point>
  </Placemark>
  <Placemark><styleUrl>#basic</styleUrl>
	<name>Itingen</name>
	<description></description>
      <Point><altitudeMode>relativeToGround</altitudeMode><coordinates>7.784785413989238,47.464816183854168,800.0</coordinates></Point>
  </Placemark>
  <Placemark><styleUrl>#basic</styleUrl>
	<name>Wittinsburg</name>
	<description></description>
      <Point><altitudeMode>relativeToGround</altitudeMode><coordinates>7.839275810673962,47.430000313479653,800.0</coordinates></Point>
  </Placemark>
  <Placemark><styleUrl>#basic</styleUrl>
	<name>Wittenbach</name>
	<description></description>
      <Point><altitudeMode>relativeToGround</altitudeMode><coordinates>9.379558487229961,47.466656159508901,800.0</coordinates></Point>
  </Placemark>
  <Placemark><styleUrl>#basic</styleUrl>
	<name>Degersheim</name>
	<description></description>
      <Point><altitudeMode>relativeToGround</altitudeMode><coordinates>9.186531291708491,47.385125124815538,800.0</coordinates></Point>
  </Placemark>
  <Placemark><styleUrl>#basic</styleUrl>
	<name>Gais</name>
	<description></description>
      <Point><altitudeMode>relativeToGround</altitudeMode><coordinates>9.471222137580716,47.369285563285935,800.0</coordinates></Point>
  </Placemark>
  <Placemark><styleUrl>#basic</styleUrl>
	<name>Comunanza Capriasca/Lugano</name>
	<description></description>
      <Point><altitudeMode>relativeToGround</altitudeMode><coordinates>9.025921340962748,46.095062002759455,800.0</coordinates></Point>
  </Placemark>
  <Placemark><styleUrl>#basic</styleUrl>
	<name>Untereggen</name>
	<description></description>
      <Point><altitudeMode>relativeToGround</altitudeMode><coordinates>9.454817595761895,47.45382623604722,800.0</coordinates></Point>
  </Placemark>
  <Placemark><styleUrl>#basic</styleUrl>
	<name>Altstätten</name>
	<description></description>
      <Point><altitudeMode>relativeToGround</altitudeMode><coordinates>9.53539298250185,47.351611550858905,800.0</coordinates></Point>
  </Placemark>
  <Placemark><styleUrl>#basic</styleUrl>
	<name>Waldkirch</name>
	<description></description>
      <Point><altitudeMode>relativeToGround</altitudeMode><coordinates>9.303020846220081,47.464185314169917,800.0</coordinates></Point>
  </Placemark>
  <Placemark><styleUrl>#basic</styleUrl>
	<name>Lantsch/Lenz</name>
	<description></description>
      <Point><altitudeMode>relativeToGround</altitudeMode><coordinates>9.579426394504768,46.706964168578885,800.0</coordinates></Point>
  </Placemark>
  <Placemark><styleUrl>#basic</styleUrl>
	<name>Poschiavo</name>
	<description></description>
      <Point><altitudeMode>relativeToGround</altitudeMode><coordinates>10.060784805941488,46.352551080882378,800.0</coordinates></Point>
  </Placemark>
  <Placemark><styleUrl>#basic</styleUrl>
	<name>Waltensburg/Vuorz</name>
	<description></description>
      <Point><altitudeMode>relativeToGround</altitudeMode><coordinates>9.077724625925354,46.811604880314682,800.0</coordinates></Point>
  </Placemark>
  <Placemark><styleUrl>#basic</styleUrl>
	<name>Mesocco</name>
	<description></description>
      <Point><altitudeMode>relativeToGround</altitudeMode><coordinates>9.201486286288338,46.447816214545291,800.0</coordinates></Point>
  </Placemark>
  <Placemark><styleUrl>#basic</styleUrl>
	<name>Wohlenschwil</name>
	<description></description>
      <Point><altitudeMode>relativeToGround</altitudeMode><coordinates>8.253829046044244,47.416749380786662,800.0</coordinates></Point>
  </Placemark>
  <Placemark><styleUrl>#basic</styleUrl>
	<name>Hirschthal</name>
	<description></description>
      <Point><altitudeMode>relativeToGround</altitudeMode><coordinates>8.067136418370378,47.317575986231098,800.0</coordinates></Point>
  </Placemark>
  <Placemark><styleUrl>#basic</styleUrl>
	<name>Widen</name>
	<description></description>
      <Point><altitudeMode>relativeToGround</altitudeMode><coordinates>8.358085989602374,47.370054238651718,800.0</coordinates></Point>
  </Placemark>
  <Placemark><styleUrl>#basic</styleUrl>
	<name>Dürrenäsch</name>
	<description></description>
      <Point><altitudeMode>relativeToGround</altitudeMode><coordinates>8.154487231497431,47.318405914521527,800.0</coordinates></Point>
  </Placemark>
  <Placemark><styleUrl>#basic</styleUrl>
	<name>Staufen</name>
	<description></description>
      <Point><altitudeMode>relativeToGround</altitudeMode><coordinates>8.159970500922011,47.378758933570523,800.0</coordinates></Point>
  </Placemark>
  <Placemark><styleUrl>#basic</styleUrl>
	<name>Unterkulm</name>
	<description></description>
      <Point><altitudeMode>relativeToGround</altitudeMode><coordinates>8.103504391947334,47.318878034442633,800.0</coordinates></Point>
  </Placemark>
  <Placemark><styleUrl>#basic</styleUrl>
	<name>Kaiseraugst</name>
	<description></description>
      <Point><altitudeMode>relativeToGround</altitudeMode><coordinates>7.74207691983779,47.536168068460249,800.0</coordinates></Point>
  </Placemark>
  <Placemark><styleUrl>#basic</styleUrl>
	<name>Uesslingen-Buch</name>
	<description></description>
      <Point><altitudeMode>relativeToGround</altitudeMode><coordinates>8.830623728744625,47.589439401578325,800.0</coordinates></Point>
  </Placemark>
  <Placemark><styleUrl>#basic</styleUrl>
	<name>Münsterlingen</name>
	<description></description>
      <Point><altitudeMode>relativeToGround</altitudeMode><coordinates>9.23557703710846,47.625446310775558,800.0</coordinates></Point>
  </Placemark>
  <Placemark><styleUrl>#basic</styleUrl>
	<name>Lommis</name>
	<description></description>
      <Point><altitudeMode>relativeToGround</altitudeMode><coordinates>8.993234616855181,47.519290329937832,800.0</coordinates></Point>
  </Placemark>
  <Placemark><styleUrl>#basic</styleUrl>
	<name>Raperswilen</name>
	<description></description>
      <Point><altitudeMode>relativeToGround</altitudeMode><coordinates>9.046753747294913,47.63675948486383,800.0</coordinates></Point>
  </Placemark>
  <Placemark><styleUrl>#basic</styleUrl>
	<name>Arogno</name>
	<description></description>
      <Point><altitudeMode>relativeToGround</altitudeMode><coordinates>8.992624859741413,45.957619200770992,800.0</coordinates></Point>
  </Placemark>
  <Placemark><styleUrl>#basic</styleUrl>
	<name>Astano</name>
	<description></description>
      <Point><altitudeMode>relativeToGround</altitudeMode><coordinates>8.81630289078875,46.015347264427966,800.0</coordinates></Point>
  </Placemark>
  <Placemark><styleUrl>#basic</styleUrl>
	<name>Mosogno</name>
	<description></description>
      <Point><altitudeMode>relativeToGround</altitudeMode><coordinates>8.634937262720381,46.195857679964512,800.0</coordinates></Point>
  </Placemark>
  <Placemark><styleUrl>#basic</styleUrl>
	<name>Comano</name>
	<description></description>
      <Point><altitudeMode>relativeToGround</altitudeMode><coordinates>8.956720448539484,46.040099950685217,800.0</coordinates></Point>
  </Placemark>
  <Placemark><styleUrl>#basic</styleUrl>
	<name>Biasca</name>
	<description></description>
      <Point><altitudeMode>relativeToGround</altitudeMode><coordinates>9.022589407079828,46.366506866784313,800.0</coordinates></Point>
  </Placemark>
  <Placemark><styleUrl>#basic</styleUrl>
	<name>Aigle</name>
	<description></description>
      <Point><altitudeMode>relativeToGround</altitudeMode><coordinates>6.972489180821565,46.315027350880563,800.0</coordinates></Point>
  </Placemark>
  <Placemark><styleUrl>#basic</styleUrl>
	<name>Bottens</name>
	<description></description>
      <Point><altitudeMode>relativeToGround</altitudeMode><coordinates>6.662068730998431,46.61510064733573,800.0</coordinates></Point>
  </Placemark>
  <Placemark><styleUrl>#basic</styleUrl>
	<name>Bercher</name>
	<description></description>
      <Point><altitudeMode>relativeToGround</altitudeMode><coordinates>6.706245902324584,46.691610756428894,800.0</coordinates></Point>
  </Placemark>
  <Placemark><styleUrl>#basic</styleUrl>
	<name>Dizy</name>
	<description></description>
      <Point><altitudeMode>relativeToGround</altitudeMode><coordinates>6.494854569546582,46.634396926368382,800.0</coordinates></Point>
  </Placemark>
  <Placemark><styleUrl>#basic</styleUrl>
	<name>Penthéréaz</name>
	<description></description>
      <Point><altitudeMode>relativeToGround</altitudeMode><coordinates>6.606547792708048,46.682813099081301,800.0</coordinates></Point>
  </Placemark>
  <Placemark><styleUrl>#basic</styleUrl>
	<name>Champagne</name>
	<description></description>
      <Point><altitudeMode>relativeToGround</altitudeMode><coordinates>6.65159696394857,46.835766058666309,800.0</coordinates></Point>
  </Placemark>
  <Placemark><styleUrl>#basic</styleUrl>
	<name>Corcelles-près-Concise</name>
	<description></description>
      <Point><altitudeMode>relativeToGround</altitudeMode><coordinates>6.699892066832383,46.853310143275564,800.0</coordinates></Point>
  </Placemark>
  <Placemark><styleUrl>#basic</styleUrl>
	<name>Vich</name>
	<description></description>
      <Point><altitudeMode>relativeToGround</altitudeMode><coordinates>6.249401583027639,46.428072697805298,800.0</coordinates></Point>
  </Placemark>
  <Placemark><styleUrl>#basic</styleUrl>
	<name>Veytaux</name>
	<description></description>
      <Point><altitudeMode>relativeToGround</altitudeMode><coordinates>6.963841174548157,46.427292983671535,800.0</coordinates></Point>
  </Placemark>
  <Placemark><styleUrl>#basic</styleUrl>
	<name>Cronay</name>
	<description></description>
      <Point><altitudeMode>relativeToGround</altitudeMode><coordinates>6.702885420522205,46.756790069605977,800.0</coordinates></Point>
  </Placemark>
  <Placemark><styleUrl>#basic</styleUrl>
	<name>Vugelles-La Mothe</name>
	<description></description>
      <Point><altitudeMode>relativeToGround</altitudeMode><coordinates>6.573761607944169,46.824970971675263,800.0</coordinates></Point>
  </Placemark>
  <Placemark><styleUrl>#basic</styleUrl>
	<name>Yvonand</name>
	<description></description>
      <Point><altitudeMode>relativeToGround</altitudeMode><coordinates>6.736059348218885,46.790346185232181,800.0</coordinates></Point>
  </Placemark>
  <Placemark><styleUrl>#basic</styleUrl>
	<name>Albinen</name>
	<description></description>
      <Point><altitudeMode>relativeToGround</altitudeMode><coordinates>7.644687520273952,46.353989447495181,800.0</coordinates></Point>
  </Placemark>
  <Placemark><styleUrl>#basic</styleUrl>
	<name>Saillon</name>
	<description></description>
      <Point><altitudeMode>relativeToGround</altitudeMode><coordinates>7.158731725634825,46.177492314334238,800.0</coordinates></Point>
  </Placemark>
  <Placemark><styleUrl>#basic</styleUrl>
	<name>Evionnaz</name>
	<description></description>
      <Point><altitudeMode>relativeToGround</altitudeMode><coordinates>6.948258361391491,46.148178173758119,800.0</coordinates></Point>
  </Placemark>
  <Placemark><styleUrl>#basic</styleUrl>
	<name>Grône</name>
	<description></description>
      <Point><altitudeMode>relativeToGround</altitudeMode><coordinates>7.485132215765634,46.234642275935478,800.0</coordinates></Point>
  </Placemark>
  <Placemark><styleUrl>#basic</styleUrl>
	<name>Veyras</name>
	<description></description>
      <Point><altitudeMode>relativeToGround</altitudeMode><coordinates>7.542499598994379,46.303674616269774,800.0</coordinates></Point>
  </Placemark>
  <Placemark><styleUrl>#basic</styleUrl>
	<name>Törbel</name>
	<description></description>
      <Point><altitudeMode>relativeToGround</altitudeMode><coordinates>7.83599390397099,46.241993837821227,800.0</coordinates></Point>
  </Placemark>
  <Placemark><styleUrl>#basic</styleUrl>
	<name>Meinier</name>
	<description></description>
      <Point><altitudeMode>relativeToGround</altitudeMode><coordinates>6.235102486105483,46.24299886790272,800.0</coordinates></Point>
  </Placemark>
  <Placemark><styleUrl>#basic</styleUrl>
	<name>Veyrier</name>
	<description></description>
      <Point><altitudeMode>relativeToGround</altitudeMode><coordinates>6.166880109061073,46.171620585932018,800.0</coordinates></Point>
  </Placemark>
  <Placemark><styleUrl>#basic</styleUrl>
	<name>Courtételle</name>
	<description></description>
      <Point><altitudeMode>relativeToGround</altitudeMode><coordinates>7.317634288341124,47.330996711490229,800.0</coordinates></Point>
  </Placemark>
  <Placemark><styleUrl>#basic</styleUrl>
	<name>Pleigne</name>
	<description></description>
      <Point><altitudeMode>relativeToGround</altitudeMode><coordinates>7.28449648775767,47.417491309933048,800.0</coordinates></Point>
  </Placemark>
  <Placemark><styleUrl>#basic</styleUrl>
	<name>Lago di Lugano</name>
	<description></description>
      <Point><altitudeMode>relativeToGround</altitudeMode><coordinates>8.949429244191885,45.964854136593338,800.0</coordinates></Point>
  </Placemark>
  <Placemark><styleUrl>#basic</styleUrl>
	<name>Planken</name>
	<description></description>
      <Point><altitudeMode>relativeToGround</altitudeMode><coordinates>9.564287060840002,47.176123946085909,800.0</coordinates></Point>
  </Placemark>
</Folder>
</Document></kml>
